[{"ID":1,"Name":"Автостанция «Варшавская»","global_id":14172647,"AdmArea":"Южный административный округ","District":"Нагорный район","Address":"Каширский проезд, владение 19","MetroStation":"Варшавская","MetroLine":"Каховская линия","WiFiAvailability":"есть","BabyCareRoom":"есть","SanitationFacilities":"9","PublicPhone":[{"Phone":"(499) 940-08-43"}],"WebSite":"www.mosgortrans.ru","WorkingHours":[{"DayOfWeek":"понедельник","Hours":"круглосуточно"},{"DayOfWeek":"вторник","Hours":"круглосуточно"},{"DayOfWeek":"среда","Hours":"круглосуточно"},{"DayOfWeek":"четверг","Hours":"круглосуточно"},{"DayOfWeek":"пятница","Hours":"круглосуточно"},{"DayOfWeek":"суббота","Hours":"круглосуточно"},{"DayOfWeek":"воскресенье","Hours":"круглосуточно"}],"BusDestination":"Республика Дагестан, Республика Ингушетия, Республика Калмыкия, Республика Крым, Республика Марий Эл, Республика Мордовия, Чеченская Республика, Калужская область, Камчатский край, Краснодарский край, Ставропольский край, Белгородская область, Волгоградская область, Воронежская область, Курская область, Липецкая область, Орловская область, Пензенская область, Ростовская область, Самарская область, Саратовская область, Тамбовская область, Тульская область, город Севастополь, Кабардино - Балкарская Республика, Республика Северная Осетия - Алания","LocationComment":"От метро «Варшавская»: последний вагон, если ехать от станции метро «Каширская». Выход из метро в сторону пригородных поездов. После выхода из вестибюля метро, не поднимаясь наверх, спуститься и пройти по подземному переходу под железной дорогой в сторону Каширского проезда. Выход из подземного перехода налево. После подъёма на улицу повернуть направо. На Каширском проезде повернуть налево, пройти около 300 метров до наземного пешеходного перехода. Далее перейти проезжую часть и вернуться по Каширскому проезду около 70 метров до дома 19.","Latitude_WGS84":"55.656216","Longitude_WGS84":"37.624292","geoData":{"coordinates":[37.624292,55.656216],"type":"Point"},"geodata_center":{"coordinates":[37.624292,55.656216],"type":"Point"}},{"ID":3,"Name":"Автостанция «Новоясеневская»","global_id":14172681,"AdmArea":"Юго-Западный административный округ","District":"район Ясенево","Address":"Новоясеневский тупик, владение 4","MetroStation":"Новоясеневская","MetroLine":"Калужско-Рижская линия","WiFiAvailability":"нет","BabyCareRoom":"есть","SanitationFacilities":"есть","PublicPhone":[{"Phone":"(495) 426-87-51"},{"Phone":"(967) 079-87-24"}],"WebSite":"www.busnovoyas.ru","WorkingHours":[{"DayOfWeek":"понедельник","Hours":"06:00-00:00"},{"DayOfWeek":"вторник","Hours":"06:00-00:00"},{"DayOfWeek":"среда","Hours":"06:00-00:00"},{"DayOfWeek":"четверг","Hours":"06:00-00:00"},{"DayOfWeek":"пятница","Hours":"06:00-00:00"},{"DayOfWeek":"суббота","Hours":"06:00-00:00"},{"DayOfWeek":"воскресенье","Hours":"06:00-00:00"}],"BusDestination":"Белгородская область, Воронежская область, Калужская область, Липецкая область, Орловская область, Пензенская область, Рязанская область, Тульская область","LocationComment":"Станция метро «Новоясеневская», первый вагон из центра. Станция метро «Битцевский Парк», последний вагон из центра.","Latitude_WGS84":"55.598421","Longitude_WGS84":"37.554223","geoData":{"coordinates":[37.554223,55.598421],"type":"Point"},"geodata_center":{"coordinates":[37.554223,55.598421],"type":"Point"}},{"ID":7,"Name":"Автовокзал «Центральный»","global_id":14172683,"AdmArea":"Восточный административный округ","District":"район Северное Измайлово","Address":"Щелковское шоссе, дом 75","MetroStation":"Щёлковская","MetroLine":"Арбатско-Покровская линия","WiFiAvailability":"есть","BabyCareRoom":"есть","SanitationFacilities":"есть","PublicPhone":[{"Phone":"(499) 940-08-43"}],"WebSite":"www.mosgortrans.ru","WorkingHours":[{"DayOfWeek":"понедельник","Hours":"круглосуточно"},{"DayOfWeek":"вторник","Hours":"круглосуточно"},{"DayOfWeek":"среда","Hours":"круглосуточно"},{"DayOfWeek":"четверг","Hours":"круглосуточно"},{"DayOfWeek":"пятница","Hours":"круглосуточно"},{"DayOfWeek":"суббота","Hours":"круглосуточно"},{"DayOfWeek":"воскресенье","Hours":"круглосуточно"}],"BusDestination":"Республика Башкортостан, Республика Марий Эл, Республика Татарстан (Татарстан), Чувашская Республика - Чувашия, Владимирская область, Ивановская область, Кировская область, Костромская область, Курганская область, Нижегородская область, Оренбургская область, Пензенская область, Рязанская область, Самарская область, Саратовская область, Тамбовская область, Ульяновская область, Челябинская область, Ярославская область","LocationComment":"От метро «Щёлковская»:\nПервый вагон из центра. В метро следуйте навигационным указателям «Автовокзал». Выход в город № 3. Пройдите вдоль здания ТРЦ «Щёлковский» по соответствующим указателям.","Latitude_WGS84":"55.811108","Longitude_WGS84":"37.8000853","geoData":{"coordinates":[37.8000853,55.811108],"type":"Point"},"geodata_center":{"coordinates":[37.8000853,55.811108],"type":"Point"}},{"ID":9,"Name":"Международный автовокзал «Южные ворота»","global_id":14172711,"AdmArea":"Южный административный округ","District":"район Братеево","Address":"город Москва, 19-й километр Московской Кольцевой Автодороги, владение 20, строение 2","MetroStation":"Алма-Атинская","MetroLine":"Замоскворецкая линия","WiFiAvailability":"есть","BabyCareRoom":"есть","SanitationFacilities":"13","PublicPhone":[{"Phone":"(499) 940-08-43"}],"WebSite":"www.mosgortrans.ru","WorkingHours":[{"DayOfWeek":"понедельник","Hours":"круглосуточно"},{"DayOfWeek":"вторник","Hours":"круглосуточно"},{"DayOfWeek":"среда","Hours":"круглосуточно"},{"DayOfWeek":"четверг","Hours":"круглосуточно"},{"DayOfWeek":"пятница","Hours":"круглосуточно"},{"DayOfWeek":"суббота","Hours":"круглосуточно"},{"DayOfWeek":"воскресенье","Hours":"круглосуточно"}],"BusDestination":"Республика Адыгея (Адыгея), Республика Алтай, Республика Башкортостан, Республика Бурятия, Республика Дагестан, Республика Ингушетия, Кабардино-Балкарская Республика, Республика Калмыкия, Карачаево-Черкесская Республика, Республика Крым, Республика Марий Эл, Республика Мордовия, Республика Саха (Якутия), Республика Северная Осетия - Алания, Республика Татарстан (Татарстан), Республика Тыва, Удмуртская Республика, Республика Хакасия, Чеченская Республика, Чувашская Республика Чувашия, Алтайский край, Забайкальский край, Камчатский край, Краснодарский край, Красноярский край, Пермский край, Приморский край, Ставропольский край, Хабаровский край, Амурская область, Астраханская область, Белгородская область, Брянская область, Владимирская область, Волгоградская область, Воронежская область, Ивановская область, Иркутская область, Калужская область, Кемеровская область, Курганская область, Курская область, Липецкая область, Магаданская область, Нижегородская область, Новосибирская область, Омская область, Оренбургская область, Орловская область, Пензенская область, Ростовская область, Рязанская область, Самарская область, Саратовская область, Сахалинская область, Свердловская область, Тамбовская область, Томская область, Тульская область, Тюменская область, Ульяновская область, Челябинская область, Еврейская автономная область, Ненецкий автономный округ, Ханты-Мансийский автономный округ - Югра, Чукотский автономный округ, Ямало-Ненецкий автономный округ, город Севастополь.","LocationComment":"От метро «Братиславская», «Марьино», Алма-Атинская», «Красногвардейская», «Домодедовская», «Царицыно», «Выхино»:\nбесплатные маршрутные такси каждые 10-15 минут (расписание и остановки).\nОт метро «Алма-Атинская»:\nавтобус № 899 (расписание движения). Время в пути – 17-20 минут.\nОт метро «Братиславская» и «Марьино»:\nавтобус № 541. Время в пути – 18-20 минут от метро «Братиславская», 15 минут от метро «Марьино».","Latitude_WGS84":"55.622275","Longitude_WGS84":"37.785643","geoData":{"coordinates":[37.785643,55.622275],"type":"Point"},"geodata_center":{"coordinates":[37.785643,55.622275],"type":"Point"}},{"ID":4,"Name":"Автостанция «Орехово»","global_id":14172836,"AdmArea":"Южный административный округ","District":"район Орехово-Борисово Северное","Address":"город Москва, Шипиловский проезд, владение 31","MetroStation":"Орехово","MetroLine":"Замоскворецкая линия","WiFiAvailability":"есть","BabyCareRoom":"нет","SanitationFacilities":"6","PublicPhone":[{"Phone":"(499) 940-08-43"}],"WebSite":"www.mosgortrans.ru","WorkingHours":[{"DayOfWeek":"понедельник","Hours":"06:30-00:00"},{"DayOfWeek":"вторник","Hours":"06:30-00:00"},{"DayOfWeek":"среда","Hours":"06:30-00:00"},{"DayOfWeek":"четверг","Hours":"06:30-00:00"},{"DayOfWeek":"пятница","Hours":"06:30-00:00"},{"DayOfWeek":"суббота","Hours":"06:30-00:00"},{"DayOfWeek":"воскресенье","Hours":"06:30-00:00"}],"BusDestination":"Липецкая область, Тульская область, Орловская область.","LocationComment":"От метро «Орехово»: последний вагон из центра. Выход из метро по ступенькам, а не по эскалатору. При выходе из стеклянных дверей метро повернуть направо.","Latitude_WGS84":"55.616368","Longitude_WGS84":"37.697514","geoData":{"coordinates":[37.697514,55.616368],"type":"Point"},"geodata_center":{"coordinates":[37.697514,55.616368],"type":"Point"}},{"ID":13,"Name":"Международный автовокзал «Северные ворота»","global_id":920009265,"AdmArea":"Северный административный округ","District":"район Ховрино","Address":"город Москва, улица Дыбенко, дом 7, строение 1","MetroStation":"Ховрино","MetroLine":"Замоскворецкая линия","WiFiAvailability":"нет","BabyCareRoom":"есть","SanitationFacilities":"29","PublicPhone":[{"Phone":"(499) 940-08-43"}],"WebSite":"www.mosgortrans.ru","WorkingHours":[{"DayOfWeek":"понедельник","Hours":"круглосуточно"},{"DayOfWeek":"вторник","Hours":"круглосуточно"},{"DayOfWeek":"среда","Hours":"круглосуточно"},{"DayOfWeek":"четверг","Hours":"круглосуточно"},{"DayOfWeek":"пятница","Hours":"круглосуточно"},{"DayOfWeek":"суббота","Hours":"круглосуточно"},{"DayOfWeek":"воскресенье","Hours":"круглосуточно"}],"BusDestination":"Республика Карелия, Республика Коми, Архангельская область, Вологодская область, Калининградская область, Ленинградская область, Мурманская область, Новгородская область, Псковская область, Смоленская область, Тверская область, Ярославская область, город Санкт-Петербург","LocationComment":"От метро «Ховрино»:\nВыход № 1. Здание автовокзала расположено слева от выхода из метро, примыкая к нему. Для входа в автовокзал следует обогнуть здание: дойти до угла здания и повернуть налево","Latitude_WGS84":"55.879048","Longitude_WGS84":"37.480529","geoData":{"coordinates":[37.480529,55.879048],"type":"Point"},"geodata_center":{"coordinates":[37.480529,55.879048],"type":"Point"}},{"ID":14,"Name":"Международный автовокзал «Саларьево»","global_id":1047080098,"AdmArea":"Новомосковский административный округ","District":"поселение Московский","Address":"г. Москва, пос. Московский, Киевское шоссе, 23-й км, д. 1, стр. 1","MetroStation":"Саларьево","MetroLine":"Сокольническая линия","WiFiAvailability":"нет","BabyCareRoom":"есть","SanitationFacilities":"19","PublicPhone":[{"Phone":"(499) 940-08-43"}],"WebSite":"www.mosgortrans.ru","WorkingHours":[{"DayOfWeek":"понедельник","Hours":"круглосуточно"},{"DayOfWeek":"вторник","Hours":"круглосуточно"},{"DayOfWeek":"среда","Hours":"круглосуточно"},{"DayOfWeek":"четверг","Hours":"круглосуточно"},{"DayOfWeek":"пятница","Hours":"круглосуточно"},{"DayOfWeek":"суббота","Hours":"круглосуточно"},{"DayOfWeek":"воскресенье","Hours":"круглосуточно"}],"BusDestination":"Республика Адыгея (Адыгея), Республика Дагестан, Республика Ингушетия, Кабардино-Балкарская Республика, Республика Калмыкия, Республика Крым, Республика Северная Осетия - Алания, Чеченская Республика, Краснодарский край, Ставропольский край, Астраханская область, Белгородская область, Брянская область, Волгоградская область, Воронежская область, Калужская область, Курская область, Липецкая область, Орловская область, Ростовская область, Саратовская область, Смоленская область, Город Севастополь","LocationComment":"От метро «Саларьево»:\nПервый вагон из центра. В метро следуйте навигационным указателям «ТПУ Саларьево». Автовокзал соединен с метро подземным переходом. Выходить на улицу не нужно. Между международным автовокзалом «Саларьево» и аэропортом Внуково курсируют городские автобусы № 911.","Latitude_WGS84":"55.621122","Longitude_WGS84":"37.421632","geoData":{"coordinates":[37.421632,55.621122],"type":"Point"},"geodata_center":{"coordinates":[37.421632,55.621122],"type":"Point"}}]